id,title,city,postal_code,region,latitude,longitude,price,charges,surface,price_per_m2,rooms,bedrooms,property_type,ad_type,floor,has_elevator,is_furnished,parking,publication_date,scraped_date,url,source
bienici-ics-jol_JOLIS_M2_loc-GES00120002-876,,Sassenage,38360,Auvergne-Rhône-Alpes,45.2071225,5.6386755,1098.94,,64.38,17.07,3.0,2.0,flat,rent,2.0,True,False,0,2025-11-24,2025-12-06 17:08:05,https://www.bienici.com/annonce/ics-jol_JOLIS_M2_loc-GES00120002-876,bienici
bienici-ics-jol_JOLIS_M2_loc-GES01150012-876,,Eybens,38320,Auvergne-Rhône-Alpes,45.1318306,5.7759863,1073.0,,67.08,16.0,3.0,2.0,flat,rent,0.0,True,False,0,2025-11-01,2025-12-06 17:08:05,https://www.bienici.com/annonce/ics-jol_JOLIS_M2_loc-GES01150012-876,bienici
bienici-ics-jol_JOLIS_M2_loc-GES00380002-876,,Sassenage,38360,Auvergne-Rhône-Alpes,45.2071225,5.6386755,604.86,,25.67,23.56,1.0,0.0,flat,rent,0.0,False,True,0,,2025-12-06 17:08:05,https://www.bienici.com/annonce/ics-jol_JOLIS_M2_loc-GES00380002-876,bienici
bienici-ics-jol_JOLIS_M2_loc-GES00380003-876,,Sassenage,38360,Auvergne-Rhône-Alpes,45.2071225,5.6386755,751.6,,31.43,23.91,2.0,1.0,flat,rent,0.0,False,True,0,,2025-12-06 17:08:05,https://www.bienici.com/annonce/ics-jol_JOLIS_M2_loc-GES00380003-876,bienici
bienici-ics-jol_JOLIS_M2_loc-GES00270010-876,,Voiron,38500,Auvergne-Rhône-Alpes,45.3682048,5.5806885,993.75,,66.0,15.06,3.0,2.0,flat,rent,4.0,True,False,0,,2025-12-06 17:08:05,https://www.bienici.com/annonce/ics-jol_JOLIS_M2_loc-GES00270010-876,bienici
bienici-ics-jol_JOLIS_M2_loc-GES00940001-876,,Grenoble,38000,Auvergne-Rhône-Alpes,45.1970415,5.7213071,620.15,,35.01,17.71,2.0,1.0,flat,rent,2.0,False,False,0,,2025-12-06 17:08:05,https://www.bienici.com/annonce/ics-jol_JOLIS_M2_loc-GES00940001-876,bienici
bienici-ics-jol_JOLIS_M2_loc-GES00380012-876,,Sassenage,38360,Auvergne-Rhône-Alpes,45.2071225,5.6386755,577.71,,22.89,25.24,1.0,0.0,flat,rent,2.0,False,True,0,,2025-12-06 17:08:05,https://www.bienici.com/annonce/ics-jol_JOLIS_M2_loc-GES00380012-876,bienici
bienici-ics-jol_JOLIS_M2_loc-GES01290013-876,,Crolles,38920,Auvergne-Rhône-Alpes,45.2814021,5.8858477,999.81,,61.57,16.24,3.0,2.0,flat,rent,2.0,True,False,0,2025-12-01,2025-12-06 17:08:05,https://www.bienici.com/annonce/ics-jol_JOLIS_M2_loc-GES01290013-876,bienici
bienici-ics-jol_JOLIS_M2_loc-GES00420001-876,,Grenoble,38100,Auvergne-Rhône-Alpes,45.1720067,5.7263422,392.62,,20.67,18.99,1.0,0.0,flat,rent,1.0,False,False,0,2025-11-27,2025-12-06 17:08:05,https://www.bienici.com/annonce/ics-jol_JOLIS_M2_loc-GES00420001-876,bienici
bienici-ics-jol_JOLIS_M2_loc-GES00120022-876,,Sassenage,38360,Auvergne-Rhône-Alpes,45.2071225,5.6386755,951.85,,71.8,13.26,3.0,2.0,flat,rent,1.0,True,False,0,2025-11-13,2025-12-06 17:08:05,https://www.bienici.com/annonce/ics-jol_JOLIS_M2_loc-GES00120022-876,bienici
bienici-ics-jol_JOLIS_M2_loc-LAPP115104,,Grenoble,38100,Auvergne-Rhône-Alpes,45.1720067,5.7263422,830.0,,56.41,14.71,2.0,1.0,flat,rent,4.0,True,False,0,2025-11-01,2025-12-06 17:08:05,https://www.bienici.com/annonce/ics-jol_JOLIS_M2_loc-LAPP115104,bienici
bienici-hektor-immobilierenotredame-3682,Chambre dans une maison,Guyancourt,78280,Île-de-France,48.7741863,2.074842,823.0,43.0,20.83,39.51,1.0,0.0,flat,rent,2.0,False,True,0,2025-11-21,2025-12-06 17:08:05,https://www.bienici.com/annonce/hektor-immobilierenotredame-3682,bienici
bienici-hektor-immobilierenotredame-3685,Coeur Notre Dame,Versailles,78000,Île-de-France,48.8037121,2.119426,1625.0,75.0,59.28,27.41,3.0,2.0,flat,rent,4.0,False,False,0,2025-12-04,2025-12-06 17:08:05,https://www.bienici.com/annonce/hektor-immobilierenotredame-3685,bienici
bienici-hektor-immobilierenotredame-3665,LE CHESNAY - PROXIMITE PLACE LABOULAYE,Le Chesnay,78150,Île-de-France,48.8284137,2.1302359,1500.0,100.0,69.43,21.6,3.0,2.0,flat,rent,2.0,False,False,0,,2025-12-06 17:08:05,https://www.bienici.com/annonce/hektor-immobilierenotredame-3665,bienici
bienici-ag420359-501891101,MAISON D'EXCEPTION,La Fouillouse,42480,Auvergne-Rhône-Alpes,45.4995521,4.3264163,1300.0,,120.0,10.83,4.0,3.0,house,rent,,False,False,0,2025-12-04,2025-12-06 17:08:05,https://www.bienici.com/annonce/ag420359-501891101,bienici
bienici-ag420359-501326933,SPECIAL COLOCATION 4 ETUDIANTS A LA CHAMBRE,Saint-Étienne,42000,Auvergne-Rhône-Alpes,45.4509921,4.3896191,350.0,85.0,27.0,12.96,1.0,0.0,flat,rent,2.0,True,True,0,2025-12-01,2025-12-06 17:08:05,https://www.bienici.com/annonce/ag420359-501326933,bienici
bienici-ag420359-498793727,GRAND F4 RENOVE HYPER CENTRE,Saint-Étienne,42000,Auvergne-Rhône-Alpes,45.4509921,4.3896191,799.0,70.0,94.0,8.5,5.0,3.0,flat,rent,2.0,True,False,0,2025-11-14,2025-12-06 17:08:05,https://www.bienici.com/annonce/ag420359-498793727,bienici
bienici-hektor-immobilierenotredame-3661,APPARTEMENT FAMILIAL EN DUPLEX,Versailles,78000,Île-de-France,48.8037121,2.119426,2170.0,115.0,76.63,28.32,4.0,3.0,flat,rent,2.0,False,False,0,,2025-12-06 17:08:05,https://www.bienici.com/annonce/hektor-immobilierenotredame-3661,bienici
bienici-ag751877-482269124,MAISON À LOUER MEUBLÉE - CHÂTILLON,Châtillon,92320,Île-de-France,48.8031284,2.2876455,3690.0,,165.0,22.36,5.0,4.0,house,rent,,False,True,0,,2025-12-06 17:08:05,https://www.bienici.com/annonce/ag751877-482269124,bienici
bienici-citya-immobilier-38792244600035-GES25380046-671,,Melay,71340,Other,46.2148849,4.0420979,880.0,,124.56,7.06,4.0,3.0,house,rent,,False,False,0,,2025-12-06 17:08:05,https://www.bienici.com/annonce/citya-immobilier-38792244600035-GES25380046-671,bienici
bienici-citya-immobilier-38792244600035-GES10920016-671,,Roanne,42300,Auvergne-Rhône-Alpes,46.0514196,4.089963,990.0,200.0,115.5,8.57,5.0,4.0,flat,rent,4.0,True,False,0,,2025-12-06 17:08:07,https://www.bienici.com/annonce/citya-immobilier-38792244600035-GES10920016-671,bienici
bienici-citya-immobilier-38792244600035-GES40510017-671,,Roanne,42300,Auvergne-Rhône-Alpes,46.0514196,4.089963,665.0,45.0,88.81,7.49,3.0,2.0,flat,rent,3.0,False,False,0,,2025-12-06 17:08:07,https://www.bienici.com/annonce/citya-immobilier-38792244600035-GES40510017-671,bienici
bienici-square-habitat-immo-facile-43257062,Appartement T2 meublé proche Hyper-centre,Le Mans,72000,Pays de la Loire,48.008023,0.2038573,780.0,65.0,43.0,18.14,2.0,1.0,flat,rent,1.0,False,True,0,2025-12-01,2025-12-06 17:08:07,https://www.bienici.com/annonce/square-habitat-immo-facile-43257062,bienici
bienici-ag420359-500622971,Charmante maison familiale avec garage et jardin clos,Saint-Genest-Lerpt,42530,Auvergne-Rhône-Alpes,45.452898,4.3385505,1150.0,50.0,94.0,12.23,5.0,3.0,house,rent,,False,False,0,2025-11-26,2025-12-06 17:08:07,https://www.bienici.com/annonce/ag420359-500622971,bienici
bienici-citya-immobilier-38792244600035-GES43070030-671,,Perreux,42120,Auvergne-Rhône-Alpes,46.023667,4.1341874,650.0,,88.5,7.34,4.0,3.0,flat,rent,2.0,False,False,0,2025-11-21,2025-12-06 17:08:07,https://www.bienici.com/annonce/citya-immobilier-38792244600035-GES43070030-671,bienici
bienici-citya-immobilier-38792244600035-LAPP5113373,,Roanne,42300,Auvergne-Rhône-Alpes,46.0514196,4.089963,495.0,95.0,35.85,13.81,1.0,0.0,flat,rent,3.0,True,False,0,2025-11-19,2025-12-06 17:08:07,https://www.bienici.com/annonce/citya-immobilier-38792244600035-LAPP5113373,bienici
bienici-citya-immobilier-38792244600035-LAPP5113461,,Le Coteau,42120,Auvergne-Rhône-Alpes,46.0314806,4.086187,495.0,75.0,35.0,14.14,1.0,0.0,flat,rent,1.0,False,False,0,2025-11-19,2025-12-06 17:08:07,https://www.bienici.com/annonce/citya-immobilier-38792244600035-LAPP5113461,bienici
bienici-immo-facile-59521787,Appartement Courbevoie 2 pièce(s) 38.20 m2,Courbevoie,92400,Île-de-France,48.8970029,2.250142,1295.0,108.0,38.2,33.9,2.0,1.0,flat,rent,4.0,False,True,0,2025-11-19,2025-12-06 17:08:07,https://www.bienici.com/annonce/immo-facile-59521787,bienici
bienici-ag420359-499312283,F4 SECTEUR SAINT PRIEST EN JAREZ,Saint-Priest-en-Jarez,42270,Auvergne-Rhône-Alpes,45.4740343,4.3767323,1060.0,70.0,83.0,12.77,4.0,3.0,flat,rent,,True,False,0,2025-11-18,2025-12-06 17:08:07,https://www.bienici.com/annonce/ag420359-499312283,bienici
bienici-immo-facile-59494378,"La Garenne Colombes centre - 2 pièces meublé 32,50 m2 avec balcon",La Garenne-Colombes,92250,Île-de-France,48.90727,2.2458775,1200.0,50.0,32.5,36.92,2.0,1.0,flat,rent,4.0,False,True,0,2025-11-18,2025-12-06 17:08:07,https://www.bienici.com/annonce/immo-facile-59494378,bienici
bienici-square-habitat-immo-facile-43249731,Maison de campagne à 3 minutes de Saint Symphorien,Saint-Symphorien,72240,Pays de la Loire,49.3140652,0.4670513,500.0,,59.0,8.47,3.0,2.0,house,rent,,False,False,0,2025-11-12,2025-12-06 17:08:07,https://www.bienici.com/annonce/square-habitat-immo-facile-43249731,bienici
bienici-ag420359-496964822,F6 - Anatole France,Saint-Étienne,42000,Auvergne-Rhône-Alpes,45.4509921,4.3896191,1080.0,280.0,125.0,8.64,6.0,4.0,flat,rent,1.0,False,True,0,2025-11-03,2025-12-06 17:08:07,https://www.bienici.com/annonce/ag420359-496964822,bienici
bienici-ag420359-496893743,Superbe F4 - Terrasse et parking,Saint-Étienne,42100,Auvergne-Rhône-Alpes,45.4094272,4.428537,1350.0,130.0,166.0,8.13,4.0,3.0,flat,rent,1.0,False,False,0,2025-11-03,2025-12-06 17:08:07,https://www.bienici.com/annonce/ag420359-496893743,bienici
bienici-ag751877-494734634,Exclusivité-Appartement meublé- Paris XV,Paris 15e,75015,Île-de-France,48.8388048,2.2712769,1639.0,,45.0,36.42,2.0,1.0,flat,rent,1.0,True,True,0,2025-10-20,2025-12-06 17:08:07,https://www.bienici.com/annonce/ag751877-494734634,bienici
bienici-citya-immobilier-38792244600035-GES12310007-671,,Roanne,42300,Auvergne-Rhône-Alpes,46.0514196,4.089963,440.0,40.0,55.98,7.86,3.0,2.0,flat,rent,2.0,False,False,0,,2025-12-06 17:08:07,https://www.bienici.com/annonce/citya-immobilier-38792244600035-GES12310007-671,bienici
bienici-ag420359-490393646,F3 proche centre ville,Saint-Étienne,42100,Auvergne-Rhône-Alpes,45.4094272,4.428537,797.0,65.0,86.0,9.27,3.0,2.0,flat,rent,5.0,True,False,0,,2025-12-06 17:08:07,https://www.bienici.com/annonce/ag420359-490393646,bienici
bienici-ag420359-488435117,F5 SAINT PRIEST EN JAREZ,Saint-Priest-en-Jarez,42270,Auvergne-Rhône-Alpes,45.4740343,4.3767323,1300.0,143.0,102.0,12.75,5.0,3.0,flat,rent,2.0,True,False,0,,2025-12-06 17:08:07,https://www.bienici.com/annonce/ag420359-488435117,bienici
bienici-ag420359-483275699,F3 Bis Centre ville FIRMINY,Firminy,42700,Auvergne-Rhône-Alpes,45.382595,4.2887308,790.0,190.0,88.0,8.98,4.0,3.0,flat,rent,4.0,True,False,0,,2025-12-06 17:08:07,https://www.bienici.com/annonce/ag420359-483275699,bienici
bienici-citya-immobilier-38792244600035-GES14320010-671,,Le Coteau,42120,Auvergne-Rhône-Alpes,46.0314806,4.086187,430.0,30.0,40.46,10.63,2.0,1.0,flat,rent,0.0,False,False,0,,2025-12-06 17:08:07,https://www.bienici.com/annonce/citya-immobilier-38792244600035-GES14320010-671,bienici
bienici-citya-immobilier-38792244600035-GES10110120-671,,Le Coteau,42120,Auvergne-Rhône-Alpes,46.0314806,4.086187,390.0,120.0,29.16,13.37,1.0,0.0,flat,rent,1.0,True,False,0,,2025-12-06 17:08:07,https://www.bienici.com/annonce/citya-immobilier-38792244600035-GES10110120-671,bienici
bienici-citya-immobilier-38792244600035-GES14240083-671,,Roanne,42300,Auvergne-Rhône-Alpes,46.0514196,4.089963,570.0,150.0,59.48,9.58,2.0,1.0,flat,rent,0.0,False,False,0,,2025-12-06 17:08:07,https://www.bienici.com/annonce/citya-immobilier-38792244600035-GES14240083-671,bienici
bienici-citya-immobilier-38792244600035-GES13140050-671,,Roanne,42300,Auvergne-Rhône-Alpes,46.0514196,4.089963,405.0,25.0,19.49,20.78,1.0,0.0,flat,rent,2.0,False,True,0,,2025-12-06 17:08:07,https://www.bienici.com/annonce/citya-immobilier-38792244600035-GES13140050-671,bienici
bienici-citya-immobilier-38792244600035-GES14120010-671,,Cherier,42430,Auvergne-Rhône-Alpes,45.9142569,3.8090839,370.0,20.0,58.32,6.34,3.0,2.0,house,rent,,False,False,0,,2025-12-06 17:08:09,https://www.bienici.com/annonce/citya-immobilier-38792244600035-GES14120010-671,bienici
bienici-ag755239-391876887,Co-location à Dunkerque (59140),Dunkerque,59140,Other,51.0402915,2.3494726,670.0,103.0,35.0,19.14,1.0,0.0,flat,rent,,False,True,0,,2025-12-06 17:08:09,https://www.bienici.com/annonce/ag755239-391876887,bienici
bienici-citya-immobilier-38792244600035-GES11350020-671,,Roanne,42300,Auvergne-Rhône-Alpes,46.0514196,4.089963,880.0,20.0,130.08,6.77,4.0,3.0,flat,rent,1.0,False,False,0,,2025-12-06 17:08:09,https://www.bienici.com/annonce/citya-immobilier-38792244600035-GES11350020-671,bienici
bienici-citya-immobilier-38792244600035-GES25050001-671,,Roanne,42300,Auvergne-Rhône-Alpes,46.0514196,4.089963,560.0,30.0,61.88,9.05,3.0,2.0,flat,rent,0.0,False,False,0,,2025-12-06 17:08:09,https://www.bienici.com/annonce/citya-immobilier-38792244600035-GES25050001-671,bienici
bienici-citya-immobilier-38792244600035-GES11610022-671,,Le Coteau,42120,Auvergne-Rhône-Alpes,46.0314806,4.086187,431.9,45.0,57.16,7.56,3.0,2.0,flat,rent,3.0,False,False,0,,2025-12-06 17:08:09,https://www.bienici.com/annonce/citya-immobilier-38792244600035-GES11610022-671,bienici
bienici-citya-immobilier-100651-D-GES00670096-122,,Laval,53000,Pays de la Loire,48.0579229,-0.7619246,651.0,53.0,51.74,12.58,2.0,1.0,flat,rent,5.0,True,False,0,,2025-12-06 17:08:09,https://www.bienici.com/annonce/citya-immobilier-100651-D-GES00670096-122,bienici
bienici-citya-immobilier-38792244600035-GES13020032-671,,Roanne,42300,Auvergne-Rhône-Alpes,46.0514196,4.089963,480.0,40.0,40.33,11.9,1.0,0.0,flat,rent,4.0,True,True,0,,2025-12-06 17:08:09,https://www.bienici.com/annonce/citya-immobilier-38792244600035-GES13020032-671,bienici
bienici-citya-immobilier-38792244600035-GES12820010-671,,Roanne,42300,Auvergne-Rhône-Alpes,46.0514196,4.089963,410.0,20.0,51.52,7.96,2.0,1.0,flat,rent,0.0,False,False,0,,2025-12-06 17:08:09,https://www.bienici.com/annonce/citya-immobilier-38792244600035-GES12820010-671,bienici
bienici-citya-immobilier-38792244600035-GES12700018-671,,Roanne,42300,Auvergne-Rhône-Alpes,46.0514196,4.089963,450.0,110.0,37.62,11.96,2.0,1.0,flat,rent,1.0,False,False,0,,2025-12-06 17:08:09,https://www.bienici.com/annonce/citya-immobilier-38792244600035-GES12700018-671,bienici
bienici-citya-immobilier-38792244600035-GES25010001-671,,Perreux,42120,Auvergne-Rhône-Alpes,46.023667,4.1341874,795.0,35.0,106.0,7.5,4.0,3.0,house,rent,,False,False,0,,2025-12-06 17:08:09,https://www.bienici.com/annonce/citya-immobilier-38792244600035-GES25010001-671,bienici
bienici-citya-immobilier-20533-GES01360006-281,,Perpignan,66000,Occitanie,42.7012897,2.8914323,600.0,50.0,38.32,15.66,2.0,1.0,flat,rent,1.0,False,True,0,,2025-12-06 17:08:09,https://www.bienici.com/annonce/citya-immobilier-20533-GES01360006-281,bienici
bienici-citya-immobilier-38792244600035-GES40730017-671,,Roanne,42300,Auvergne-Rhône-Alpes,46.0514196,4.089963,540.0,40.0,71.95,7.51,3.0,2.0,flat,rent,1.0,False,False,0,,2025-12-06 17:08:09,https://www.bienici.com/annonce/citya-immobilier-38792244600035-GES40730017-671,bienici
bienici-citya-immobilier-38792244600035-GES41830020-671,,Roanne,42300,Auvergne-Rhône-Alpes,46.0514196,4.089963,640.0,,50.79,12.6,3.0,2.0,flat,rent,1.0,False,True,0,,2025-12-06 17:08:09,https://www.bienici.com/annonce/citya-immobilier-38792244600035-GES41830020-671,bienici
bienici-citya-immobilier-38792244600035-GES22420030-671,,Saint-Germain-Laval,42260,Auvergne-Rhône-Alpes,45.8314,4.01237,900.0,,89.59,10.05,4.0,3.0,house,rent,,False,True,0,,2025-12-06 17:08:09,https://www.bienici.com/annonce/citya-immobilier-38792244600035-GES22420030-671,bienici
bienici-citya-immobilier-38792244600035-GES11800050-671,,Roanne,42300,Auvergne-Rhône-Alpes,46.0514196,4.089963,470.0,20.0,38.71,12.14,2.0,1.0,flat,rent,1.0,False,False,0,,2025-12-06 17:08:09,https://www.bienici.com/annonce/citya-immobilier-38792244600035-GES11800050-671,bienici
bienici-citya-immobilier-100651-D-GES01680088-122,,Laval,53000,Pays de la Loire,48.0579229,-0.7619246,535.0,35.0,49.52,10.8,2.0,1.0,flat,rent,1.0,False,False,0,,2025-12-06 17:08:09,https://www.bienici.com/annonce/citya-immobilier-100651-D-GES01680088-122,bienici
bienici-citya-immobilier-100651-D-GES29800059-122,,Laval,53000,Pays de la Loire,48.0579229,-0.7619246,565.0,150.0,56.08,10.07,2.0,1.0,flat,rent,0.0,False,False,0,,2025-12-06 17:08:09,https://www.bienici.com/annonce/citya-immobilier-100651-D-GES29800059-122,bienici
bienici-citya-immobilier-38792244600035-GES10050162-671,,Roanne,42300,Auvergne-Rhône-Alpes,46.0514196,4.089963,495.0,45.0,51.45,9.62,2.0,1.0,flat,rent,0.0,False,False,0,,2025-12-06 17:08:09,https://www.bienici.com/annonce/citya-immobilier-38792244600035-GES10050162-671,bienici
bienici-citya-immobilier-38792244600035-GES12490029-671,,Roanne,42300,Auvergne-Rhône-Alpes,46.0514196,4.089963,535.0,135.0,45.58,11.74,2.0,1.0,flat,rent,2.0,True,False,0,,2025-12-06 17:08:09,https://www.bienici.com/annonce/citya-immobilier-38792244600035-GES12490029-671,bienici
bienici-citya-immobilier-38792244600035-GES11440010-671,,Roanne,42300,Auvergne-Rhône-Alpes,46.0514196,4.089963,568.0,78.0,56.61,10.03,3.0,2.0,flat,rent,2.0,False,False,0,,2025-12-06 17:08:09,https://www.bienici.com/annonce/citya-immobilier-38792244600035-GES11440010-671,bienici
bienici-citya-immobilier-38792244600035-GES41840050-671,,Saint-Germain-Laval,42260,Auvergne-Rhône-Alpes,45.8314,4.01237,350.0,,36.0,9.72,2.0,1.0,flat,rent,1.0,False,True,0,,2025-12-06 17:08:09,https://www.bienici.com/annonce/citya-immobilier-38792244600035-GES41840050-671,bienici
bienici-citya-immobilier-38792244600035-GES41100004-671,,Saint-Forgeux-Lespinasse,42640,Auvergne-Rhône-Alpes,46.1229772,3.9303177,490.0,25.0,52.58,9.32,3.0,2.0,flat,rent,1.0,False,False,0,,2025-12-06 17:08:09,https://www.bienici.com/annonce/citya-immobilier-38792244600035-GES41100004-671,bienici
bienici-citya-immobilier-38792244600035-GES10480034-671,,Roanne,42300,Auvergne-Rhône-Alpes,46.0514196,4.089963,556.0,90.0,49.24,11.29,2.0,1.0,flat,rent,3.0,False,True,0,,2025-12-06 17:08:09,https://www.bienici.com/annonce/citya-immobilier-38792244600035-GES10480034-671,bienici
bienici-citya-immobilier-38792244600035-GES41560080-671,,Le Coteau,42120,Auvergne-Rhône-Alpes,46.0314806,4.086187,430.0,30.0,25.05,17.17,2.0,1.0,flat,rent,1.0,False,True,0,,2025-12-06 17:08:09,https://www.bienici.com/annonce/citya-immobilier-38792244600035-GES41560080-671,bienici
bienici-citya-immobilier-38792244600035-GES21920010-671,,Saint-Haon-le-Châtel,42370,Auvergne-Rhône-Alpes,46.0664553,3.9152093,385.59,,24.74,15.59,2.0,1.0,house,rent,,False,False,0,,2025-12-06 17:08:12,https://www.bienici.com/annonce/citya-immobilier-38792244600035-GES21920010-671,bienici
bienici-ics-cal_CALISSATOU_loc-GES00230091-622,,Lalande,89130,Other,44.0164927,1.3714661,990.0,110.0,83.79,11.82,4.0,3.0,flat,rent,3.0,True,False,0,,2025-12-06 17:08:12,https://www.bienici.com/annonce/ics-cal_CALISSATOU_loc-GES00230091-622,bienici
bienici-citya-immobilier-100651-D-GES23500003-122,,Laval,53000,Pays de la Loire,48.0579229,-0.7619246,590.0,30.0,58.16,10.14,3.0,2.0,flat,rent,2.0,False,False,0,,2025-12-06 17:08:12,https://www.bienici.com/annonce/citya-immobilier-100651-D-GES23500003-122,bienici
bienici-immo-facile-59647747,Appartement Colombes 1 pièce 31.50 m2,Colombes,92700,Île-de-France,48.9218984,2.245196,1070.0,55.0,31.5,33.97,1.0,0.0,flat,rent,1.0,True,True,0,2025-12-06,2025-12-06 17:08:12,https://www.bienici.com/annonce/immo-facile-59647747,bienici
bienici-ag420359-502235333,"GRAND F2 MEUBLE de 57,47 m²",Saint-Étienne,42100,Auvergne-Rhône-Alpes,45.4094272,4.428537,437.0,36.0,54.0,8.09,2.0,1.0,flat,rent,3.0,False,True,0,2025-12-06,2025-12-06 17:08:12,https://www.bienici.com/annonce/ag420359-502235333,bienici
bienici-ag420359-502235351,CHARMANT F2 PRÈS DE LA CITÉ DU DESIGN,Saint-Étienne,42000,Auvergne-Rhône-Alpes,45.4509921,4.3896191,485.0,,82.0,5.91,2.0,1.0,flat,rent,1.0,False,False,0,2025-12-06,2025-12-06 17:08:12,https://www.bienici.com/annonce/ag420359-502235351,bienici
bienici-ag420359-502235342,SUPERBE F2 AVEC TERRASSE,Saint-Priest-en-Jarez,42270,Auvergne-Rhône-Alpes,45.4740343,4.3767323,706.0,50.0,51.0,13.84,2.0,1.0,flat,rent,1.0,True,False,0,2025-12-06,2025-12-06 17:08:12,https://www.bienici.com/annonce/ag420359-502235342,bienici
bienici-citya-immobilier-04-GES03163120-552,,Montauban,82000,Occitanie,44.0217175,1.3699513,1330.0,30.0,182.35,7.29,5.0,4.0,house,rent,,False,False,0,2025-12-04,2025-12-06 17:08:12,https://www.bienici.com/annonce/citya-immobilier-04-GES03163120-552,bienici
bienici-ag751877-501692828,Appartement meublé - Paris 14ème,Paris 14e,75014,Île-de-France,48.8233584,2.323259,3800.0,,102.0,37.25,4.0,2.0,flat,rent,1.0,False,True,0,2025-12-03,2025-12-06 17:08:12,https://www.bienici.com/annonce/ag751877-501692828,bienici
bienici-citya-immobilier-5047-LAPP5113635,,Bourg-en-Bresse,1000,Other,46.2051192,5.2250324,705.0,55.0,53.51,13.18,2.0,1.0,flat,rent,2.0,True,True,0,2025-12-02,2025-12-06 17:08:12,https://www.bienici.com/annonce/citya-immobilier-5047-LAPP5113635,bienici
bienici-citya-immobilier-965503386-GES01500132-171,,Valence,26000,Auvergne-Rhône-Alpes,44.9234681,4.9072381,1105.0,100.0,131.78,8.39,4.0,3.0,flat,rent,4.0,True,False,0,2025-12-02,2025-12-06 17:08:12,https://www.bienici.com/annonce/citya-immobilier-965503386-GES01500132-171,bienici
bienici-ag751877-501324737,Appartement meublé avec mezzanine à Paris 6ème,Paris 6e,75006,Île-de-France,48.8568375,2.3372581,1590.0,,35.0,45.43,1.0,0.0,flat,rent,1.0,True,True,0,2025-12-01,2025-12-06 17:08:12,https://www.bienici.com/annonce/ag751877-501324737,bienici
bienici-citya-immobilier-00178-GES90720070-565,,Lézat-sur-Lèze,9210,Île-de-France,43.2773,1.34623,760.0,30.0,81.57,9.32,4.0,3.0,house,rent,,False,False,0,2025-11-28,2025-12-06 17:08:12,https://www.bienici.com/annonce/citya-immobilier-00178-GES90720070-565,bienici
bienici-citya-immobilier-5047-GES13290008-218,,Bourg-en-Bresse,1000,Other,46.2051192,5.2250324,940.0,40.0,95.82,9.81,3.0,2.0,flat,rent,1.0,False,False,0,2025-11-28,2025-12-06 17:08:12,https://www.bienici.com/annonce/citya-immobilier-5047-GES13290008-218,bienici
bienici-citya-immobilier-1273-GES01510002-63,,Mulhouse,68100,Other,47.7466312,7.343525,600.0,50.0,57.73,10.39,3.0,2.0,flat,rent,3.0,False,False,0,2025-11-28,2025-12-06 17:08:12,https://www.bienici.com/annonce/citya-immobilier-1273-GES01510002-63,bienici
bienici-citya-immobilier-3718-GES40870002-68,,Périgueux,24000,Nouvelle-Aquitaine,45.1937963,0.7146051,1920.0,20.0,113.0,16.99,5.0,4.0,flat,rent,0.0,False,False,0,2025-11-28,2025-12-06 17:08:12,https://www.bienici.com/annonce/citya-immobilier-3718-GES40870002-68,bienici
bienici-citya-immobilier-48298041400536-GES77050003-708,,Châlons-en-Champagne,51000,Other,48.965737,4.3761893,563.0,38.0,46.14,12.2,2.0,1.0,flat,rent,0.0,False,False,0,2025-11-27,2025-12-06 17:08:12,https://www.bienici.com/annonce/citya-immobilier-48298041400536-GES77050003-708,bienici
bienici-citya-immobilier-41822747600029-GES32190061-934,,Saint-Quentin,2100,Other,49.8465253,3.2876843,614.0,39.0,51.67,11.88,3.0,1.0,flat,rent,2.0,False,False,0,2025-11-27,2025-12-06 17:08:12,https://www.bienici.com/annonce/citya-immobilier-41822747600029-GES32190061-934,bienici
bienici-citya-immobilier-1279-GES99262815-37,,Vaux-sur-Mer,17640,Nouvelle-Aquitaine,45.6444366,-1.0599191,1500.0,,120.0,12.5,4.0,3.0,house,rent,,False,False,0,2025-11-26,2025-12-06 17:08:12,https://www.bienici.com/annonce/citya-immobilier-1279-GES99262815-37,bienici
bienici-netty-lagencerie2-house-2802,Maison T3 avec jardin,Albi,81000,Occitanie,43.9291438,2.1472581,795.0,,63.0,12.62,3.0,2.0,house,rent,,False,False,0,2025-11-25,2025-12-06 17:08:12,https://www.bienici.com/annonce/netty-lagencerie2-house-2802,bienici
bienici-ag420359-500511761,F2 A PROXIMITÉ DES LYCÉES MIMARD ET FAURIEL,Saint-Étienne,42000,Auvergne-Rhône-Alpes,45.4509921,4.3896191,444.0,108.0,55.0,8.07,2.0,1.0,flat,rent,7.0,True,False,0,2025-11-25,2025-12-06 17:08:12,https://www.bienici.com/annonce/ag420359-500511761,bienici
bienici-ag420359-500511794,F4 situé proche centre ville,Rive-de-Gier,42800,Auvergne-Rhône-Alpes,45.5170015,4.6227702,645.0,,74.0,8.72,4.0,2.0,flat,rent,2.0,False,False,0,2025-11-25,2025-12-06 17:08:12,https://www.bienici.com/annonce/ag420359-500511794,bienici
bienici-citya-immobilier-48298041400536-GES20030062-708,,Saint-André-les-Vergers,10120,Other,48.2453096,4.0069543,650.0,60.0,55.06,11.81,2.0,1.0,flat,rent,3.0,False,True,0,2025-11-25,2025-12-06 17:08:12,https://www.bienici.com/annonce/citya-immobilier-48298041400536-GES20030062-708,bienici
bienici-citya-immobilier-53-GES39840001-512,,Carcassonne,11000,Occitanie,43.2077173,2.3399686,850.0,40.0,101.65,8.36,4.0,3.0,house,rent,,False,False,0,2025-11-21,2025-12-06 17:08:12,https://www.bienici.com/annonce/citya-immobilier-53-GES39840001-512,bienici
bienici-citya-immobilier-5040-GES74440034-171,,Charbonnières-les-Bains,69260,Auvergne-Rhône-Alpes,45.7791467,4.7423098,980.0,80.0,46.96,20.87,2.0,1.0,flat,rent,1.0,False,False,0,2025-11-21,2025-12-06 17:08:14,https://www.bienici.com/annonce/citya-immobilier-5040-GES74440034-171,bienici
bienici-citya-immobilier-5046-GES23040012-206,,Mâcon,71000,Other,46.3170532,4.8272762,1080.0,20.0,103.13,10.47,5.0,3.0,flat,rent,2.0,False,False,0,2025-11-21,2025-12-06 17:08:14,https://www.bienici.com/annonce/citya-immobilier-5046-GES23040012-206,bienici
bienici-citya-immobilier-1955-GES40190012-141,,Le Mans,72000,Pays de la Loire,48.008023,0.2038573,720.0,50.0,63.16,11.4,3.0,2.0,flat,rent,3.0,True,False,0,2025-11-21,2025-12-06 17:08:14,https://www.bienici.com/annonce/citya-immobilier-1955-GES40190012-141,bienici
bienici-citya-immobilier-9752-GES48280001-277,,Brive-la-Gaillarde,19100,Nouvelle-Aquitaine,45.1451095,1.5187709,885.0,35.0,83.53,10.59,4.0,3.0,house,rent,,False,True,0,2025-11-21,2025-12-06 17:08:14,https://www.bienici.com/annonce/citya-immobilier-9752-GES48280001-277,bienici
bienici-square-habitat-immo-facile-43250716,Maison Parigne Sur Braye 4 pièce(s) 99 m2,Parigné-sur-Braye,53100,Pays de la Loire,48.316724,-0.6527579,750.0,,99.0,7.58,4.0,3.0,house,rent,,False,False,0,2025-11-20,2025-12-06 17:08:14,https://www.bienici.com/annonce/square-habitat-immo-facile-43250716,bienici
bienici-citya-immobilier-45324886600031-GES57510026-824,,Cambo-les-Bains,64250,Nouvelle-Aquitaine,43.3644155,-1.4172381,1755.7,210.0,154.9,11.33,6.0,4.0,house,rent,,False,False,0,2025-11-19,2025-12-06 17:08:14,https://www.bienici.com/annonce/citya-immobilier-45324886600031-GES57510026-824,bienici
bienici-square-habitat-immo-facile-41406731,Appartement 3 pièces,Le Mans,72000,Pays de la Loire,48.008023,0.2038573,690.0,40.0,70.56,9.78,3.0,2.0,flat,rent,0.0,True,False,0,2025-11-18,2025-12-06 17:08:14,https://www.bienici.com/annonce/square-habitat-immo-facile-41406731,bienici
bienici-citya-immobilier-1295-GES31410172-64,,Alençon,61000,Other,48.4306826,0.0861113,830.0,240.0,76.27,10.88,3.0,2.0,flat,rent,5.0,True,False,0,2025-11-18,2025-12-06 17:08:14,https://www.bienici.com/annonce/citya-immobilier-1295-GES31410172-64,bienici
bienici-ag420359-499195937,JOLI STUDIO MEUBLE,Saint-Étienne,42100,Auvergne-Rhône-Alpes,45.4094272,4.428537,490.0,15.0,23.0,21.3,1.0,0.0,flat,rent,,False,True,0,2025-11-17,2025-12-06 17:08:14,https://www.bienici.com/annonce/ag420359-499195937,bienici
bienici-citya-immobilier-20533-GES01100038-51,,Perpignan,66000,Occitanie,42.7012897,2.8914323,820.0,70.0,101.14,8.11,4.0,3.0,flat,rent,9.0,True,False,0,2025-11-17,2025-12-06 17:08:14,https://www.bienici.com/annonce/citya-immobilier-20533-GES01100038-51,bienici
bienici-citya-immobilier-Ag370015-GES25690015-727,,Ballan-Miré,37510,Other,47.3432808,0.5500682,960.0,35.0,81.12,11.83,4.0,3.0,house,rent,,False,False,0,2025-11-15,2025-12-06 17:08:14,https://www.bienici.com/annonce/citya-immobilier-Ag370015-GES25690015-727,bienici
bienici-citya-immobilier-Ag370015-GES23580006-727,,Saint-Avertin,37550,Other,47.3547012,0.7330546,915.0,65.0,67.06,13.64,3.0,1.0,flat,rent,0.0,False,False,0,2025-11-14,2025-12-06 17:08:14,https://www.bienici.com/annonce/citya-immobilier-Ag370015-GES23580006-727,bienici
bienici-ag420359-498793697,IDEAL ETUDIANT PROXIMITE HOPITAL NORD,Saint-Priest-en-Jarez,42270,Auvergne-Rhône-Alpes,45.4740343,4.3767323,435.0,25.0,19.0,22.89,1.0,0.0,flat,rent,2.0,True,True,0,2025-11-14,2025-12-06 17:08:14,https://www.bienici.com/annonce/ag420359-498793697,bienici
bienici-citya-immobilier-36880079300011-GES40950007-998,,Metz,57070,Other,49.1259298,6.2151176,1950.0,200.0,131.0,14.89,5.0,3.0,flat,rent,3.0,True,False,0,2025-11-14,2025-12-06 17:08:14,https://www.bienici.com/annonce/citya-immobilier-36880079300011-GES40950007-998,bienici
bienici-ag420359-498601610,F3 - AVENUE DE ROCHETAILLEE,Saint-Étienne,42100,Auvergne-Rhône-Alpes,45.4094272,4.428537,650.0,135.0,64.0,10.16,3.0,2.0,flat,rent,4.0,True,False,0,2025-11-13,2025-12-06 17:08:14,https://www.bienici.com/annonce/ag420359-498601610,bienici
bienici-citya-immobilier-5002-GES99710001-297,,Le Havre,76600,Other,49.4958924,0.1276083,1200.0,,89.81,13.36,5.0,4.0,house,rent,,False,True,0,2025-11-13,2025-12-06 17:08:14,https://www.bienici.com/annonce/citya-immobilier-5002-GES99710001-297,bienici
bienici-guy-hoquet-immo-facile-7359993,Appartement Mulhouse 3 pièce(s) 70 m2,Mulhouse,68200,Other,47.7554666,7.3177692,800.0,150.0,70.0,11.43,3.0,2.0,flat,rent,1.0,False,False,0,2025-11-13,2025-12-06 17:08:14,https://www.bienici.com/annonce/guy-hoquet-immo-facile-7359993,bienici
bienici-citya-immobilier-53-GES40200006-512,,Carcassonne,11000,Occitanie,43.2077173,2.3399686,1000.0,,143.7,6.96,5.0,3.0,flat,rent,1.0,False,True,0,2025-11-07,2025-12-06 17:08:14,https://www.bienici.com/annonce/citya-immobilier-53-GES40200006-512,bienici
bienici-citya-immobilier-5046-GES05130018-206,,Charnay-lès-Mâcon,71850,Other,46.305392,4.7908339,800.0,100.0,66.52,12.03,4.0,2.0,flat,rent,4.0,False,False,0,2025-11-07,2025-12-06 17:08:14,https://www.bienici.com/annonce/citya-immobilier-5046-GES05130018-206,bienici
bienici-citya-immobilier-1265-GES14680001-69,,Saint-Maurice-les-Brousses,87800,Nouvelle-Aquitaine,45.6985284,1.2361207,897.44,32.0,147.0,6.11,5.0,4.0,house,rent,,False,False,0,2025-11-07,2025-12-06 17:08:14,https://www.bienici.com/annonce/citya-immobilier-1265-GES14680001-69,bienici
bienici-citya-immobilier-48298041400536-GES80100003-708,,Châlons-en-Champagne,51000,Other,48.965737,4.3761893,750.0,150.0,71.7,10.46,4.0,2.0,flat,rent,7.0,True,False,0,2025-11-04,2025-12-06 17:08:14,https://www.bienici.com/annonce/citya-immobilier-48298041400536-GES80100003-708,bienici
bienici-citya-immobilier-12453256-GES12530024-495,,Le Port,97420,Other,-20.9460979,55.3042856,1330.0,50.0,90.06,14.77,3.0,2.0,flat,rent,6.0,False,False,0,2025-11-04,2025-12-06 17:08:14,https://www.bienici.com/annonce/citya-immobilier-12453256-GES12530024-495,bienici
bienici-citya-immobilier-29338-GES03870002-58,,La Rochelle,17000,Nouvelle-Aquitaine,46.1620112,-1.1814851,1900.0,65.0,145.0,13.1,3.0,2.0,flat,rent,1.0,False,True,0,2025-11-04,2025-12-06 17:08:14,https://www.bienici.com/annonce/citya-immobilier-29338-GES03870002-58,bienici
bienici-citya-immobilier-53163208100026-GES53720836-1031,,Saint-Nazaire,44600,Pays de la Loire,47.2768874,-2.2407694,1065.0,65.0,118.93,8.95,5.0,4.0,flat,rent,1.0,False,False,0,2025-11-03,2025-12-06 17:08:14,https://www.bienici.com/annonce/citya-immobilier-53163208100026-GES53720836-1031,bienici
bienici-citya-immobilier-32708047900014-GES05020001-769,,Poitiers,86000,Nouvelle-Aquitaine,46.5845278,0.3679823,1500.0,,210.0,7.14,9.0,7.0,house,rent,,False,False,0,2025-10-31,2025-12-06 17:08:16,https://www.bienici.com/annonce/citya-immobilier-32708047900014-GES05020001-769,bienici
bienici-ag420359-496526435,F5 avec garage - TREFILERIE,Saint-Étienne,42100,Auvergne-Rhône-Alpes,45.4094272,4.428537,900.0,180.0,113.0,7.96,5.0,3.0,flat,rent,7.0,True,True,0,2025-10-31,2025-12-06 17:08:16,https://www.bienici.com/annonce/ag420359-496526435,bienici
bienici-ag420359-496526348,F5 garage - Centre deux,Saint-Étienne,42100,Auvergne-Rhône-Alpes,45.4094272,4.428537,900.0,145.0,96.0,9.38,5.0,4.0,flat,rent,4.0,True,False,0,2025-10-31,2025-12-06 17:08:16,https://www.bienici.com/annonce/ag420359-496526348,bienici
bienici-citya-immobilier-39915926800024-GES00500140-893,,Beauvais,60000,Other,49.4256054,2.0709947,1070.0,70.0,102.44,10.45,4.0,3.0,flat,rent,3.0,True,False,0,2025-10-30,2025-12-06 17:08:16,https://www.bienici.com/annonce/citya-immobilier-39915926800024-GES00500140-893,bienici
bienici-netty-lagencerie2-appt-3925,Appartement T3 duplex meublé,Albi,81000,Occitanie,43.9291438,2.1472581,750.0,50.0,65.87,11.39,3.0,2.0,flat,rent,3.0,False,True,0,2025-10-30,2025-12-06 17:08:16,https://www.bienici.com/annonce/netty-lagencerie2-appt-3925,bienici
bienici-citya-immobilier-5046-GES53760001-206,,Varennes-lès-Mâcon,71000,Other,46.2705066,4.8057476,1115.0,15.0,144.68,7.71,5.0,4.0,house,rent,,False,False,0,2025-10-29,2025-12-06 17:08:16,https://www.bienici.com/annonce/citya-immobilier-5046-GES53760001-206,bienici
bienici-citya-immobilier-1290-GES14290003-496,,Mireval,34110,Occitanie,43.5086211,3.8016824,1750.0,,99.37,17.61,4.0,3.0,flat,rent,0.0,False,True,0,2025-10-28,2025-12-06 17:08:16,https://www.bienici.com/annonce/citya-immobilier-1290-GES14290003-496,bienici
bienici-citya-immobilier-5046-LMAI102994,,Mâcon,71000,Other,46.3170532,4.8272762,1440.0,60.0,143.0,10.07,6.0,4.0,house,rent,,False,True,0,2025-10-28,2025-12-06 17:08:16,https://www.bienici.com/annonce/citya-immobilier-5046-LMAI102994,bienici
bienici-citya-immobilier-45117462700013-GES03960001-946,,Sarlat-la-Canéda,24200,Nouvelle-Aquitaine,44.8998385,1.1943917,932.0,32.0,104.71,8.9,5.0,3.0,house,rent,,False,False,0,2025-10-28,2025-12-06 17:08:16,https://www.bienici.com/annonce/citya-immobilier-45117462700013-GES03960001-946,bienici
bienici-citya-immobilier-34745045400058-GES02780001-640,,Bruyères-le-Châtel,91680,Île-de-France,48.6026855,2.1885722,1650.0,,132.34,12.47,5.0,3.0,house,rent,,False,False,0,2025-10-23,2025-12-06 17:08:16,https://www.bienici.com/annonce/citya-immobilier-34745045400058-GES02780001-640,bienici
bienici-citya-immobilier-482980414000395-GES81020936-701,,Besny-et-Loizy,2870,Other,49.6005556,3.5825,750.0,13.0,98.23,7.64,5.0,3.0,house,rent,,False,False,0,2025-10-22,2025-12-06 17:08:16,https://www.bienici.com/annonce/citya-immobilier-482980414000395-GES81020936-701,bienici
bienici-citya-immobilier-0398-LMAI102990,,Bègles,33130,Nouvelle-Aquitaine,44.8031085,-0.5492643,1990.0,,150.0,13.27,7.0,5.0,house,rent,,False,False,0,2025-10-22,2025-12-06 17:08:16,https://www.bienici.com/annonce/citya-immobilier-0398-LMAI102990,bienici
bienici-ag420359-495068375,Joli et grand F2 vers la gare de Châteaucreux,Saint-Étienne,42000,Auvergne-Rhône-Alpes,45.4509921,4.3896191,499.0,20.0,65.0,7.68,3.0,1.0,flat,rent,2.0,False,False,0,2025-10-22,2025-12-06 17:08:16,https://www.bienici.com/annonce/ag420359-495068375,bienici
bienici-citya-immobilier-4327-GES10700014-49,,Nîmes,30900,Occitanie,43.8302967,4.3332394,966.47,100.0,88.47,10.92,4.0,3.0,flat,rent,2.0,True,False,0,2025-10-22,2025-12-06 17:08:16,https://www.bienici.com/annonce/citya-immobilier-4327-GES10700014-49,bienici
bienici-citya-immobilier-9752-GES40640112-277,,Brive-la-Gaillarde,19100,Nouvelle-Aquitaine,45.1451095,1.5187709,875.0,375.0,103.07,8.49,4.0,2.0,flat,rent,2.0,False,True,0,2025-10-21,2025-12-06 17:08:16,https://www.bienici.com/annonce/citya-immobilier-9752-GES40640112-277,bienici
bienici-citya-immobilier-Ag370015-GES45960001-727,,Tours,37100,Other,47.4190924,0.702471,1300.0,,116.0,11.21,6.0,5.0,house,rent,,False,False,0,2025-10-21,2025-12-06 17:08:16,https://www.bienici.com/annonce/citya-immobilier-Ag370015-GES45960001-727,bienici
bienici-citya-immobilier-1273-GES89950007-63,,Issenheim,68500,Other,47.8933149,7.2406122,830.0,50.0,46.85,17.72,2.0,1.0,flat,rent,1.0,True,True,0,2025-10-21,2025-12-06 17:08:16,https://www.bienici.com/annonce/citya-immobilier-1273-GES89950007-63,bienici
bienici-citya-immobilier-41822747600029-GES10520001-934,,Essigny-le-Grand,2690,Auvergne-Rhône-Alpes,49.7757876,3.276308,850.0,,124.84,6.81,6.0,4.0,house,rent,,False,False,0,2025-10-20,2025-12-06 17:08:16,https://www.bienici.com/annonce/citya-immobilier-41822747600029-GES10520001-934,bienici
bienici-citya-immobilier-32131919600077-GES02780001-902,,Montmorency,95160,Île-de-France,48.9920717,2.3246336,1290.0,100.0,49.27,26.18,2.0,1.0,flat,rent,0.0,True,True,0,2025-10-20,2025-12-06 17:08:16,https://www.bienici.com/annonce/citya-immobilier-32131919600077-GES02780001-902,bienici
bienici-citya-immobilier-349-502-849-GES04320004-1066,,Saint-Nazaire,44600,Pays de la Loire,47.2768874,-2.2407694,648.09,38.0,50.1,12.94,2.0,1.0,flat,rent,0.0,False,False,0,2025-10-17,2025-12-06 17:08:16,https://www.bienici.com/annonce/citya-immobilier-349-502-849-GES04320004-1066,bienici
bienici-ag420359-494309726,GRAND F3 EN HYPER CENTRE,Saint-Étienne,42000,Auvergne-Rhône-Alpes,45.4509921,4.3896191,659.0,60.0,113.0,5.83,3.0,2.0,flat,rent,2.0,False,False,0,2025-10-17,2025-12-06 17:08:16,https://www.bienici.com/annonce/ag420359-494309726,bienici
bienici-square-habitat-immo-facile-43140637,À louer - appartement type 4 - LES PONTS-DE-CE,Les Ponts-de-Cé,49130,Pays de la Loire,47.4269139,-0.5402905,1040.0,90.0,85.27,12.2,4.0,3.0,flat,rent,0.0,False,False,0,2025-10-16,2025-12-06 17:08:16,https://www.bienici.com/annonce/square-habitat-immo-facile-43140637,bienici
bienici-citya-immobilier-1280-GES68590488-45,,Agen,47000,Nouvelle-Aquitaine,44.2009452,0.6244713,1050.0,100.0,109.35,9.6,4.0,3.0,house,rent,,False,False,0,2025-10-16,2025-12-06 17:08:16,https://www.bienici.com/annonce/citya-immobilier-1280-GES68590488-45,bienici
bienici-citya-immobilier-29290-GES52060001-61,,Beaurecueil,13100,Provence-Alpes-Côte d'Azur,43.5116002,5.545517,1050.0,,61.95,16.95,3.0,2.0,flat,rent,1.0,False,True,0,2025-10-15,2025-12-06 17:08:16,https://www.bienici.com/annonce/citya-immobilier-29290-GES52060001-61,bienici
bienici-citya-immobilier-1030-GES35210019-229,,Aubervilliers,93300,Île-de-France,48.9128812,2.3877325,1179.35,150.0,59.5,19.82,3.0,2.0,flat,rent,3.0,False,True,0,2025-10-13,2025-12-06 17:08:19,https://www.bienici.com/annonce/citya-immobilier-1030-GES35210019-229,bienici
bienici-citya-immobilier-5056-GES00302061-207,,Le Chesnay-Rocquencourt,78150,Île-de-France,48.8284137,2.1302359,1990.0,180.0,96.43,20.64,4.0,3.0,flat,rent,0.0,True,True,0,2025-10-10,2025-12-06 17:08:19,https://www.bienici.com/annonce/citya-immobilier-5056-GES00302061-207,bienici
bienici-citya-immobilier-24206-GES61940001-39,,Mérignac,33700,Nouvelle-Aquitaine,44.8313054,-0.6794484,1610.0,10.0,113.8,14.15,4.0,3.0,house,rent,,False,True,0,2025-10-09,2025-12-06 17:08:19,https://www.bienici.com/annonce/citya-immobilier-24206-GES61940001-39,bienici
bienici-square-habitat-immo-facile-43190191,Appartement récent T2 meublé proche gare,Le Mans,72000,Pays de la Loire,48.008023,0.2038573,635.0,35.0,44.37,14.31,2.0,1.0,flat,rent,1.0,False,True,0,,2025-12-06 17:08:19,https://www.bienici.com/annonce/square-habitat-immo-facile-43190191,bienici
bienici-square-habitat-immo-facile-41408335,Maison/villa 3 pièces,Allonnes,72700,Pays de la Loire,47.9575575,0.1248655,810.0,15.0,76.0,10.66,3.0,2.0,house,rent,,False,False,0,,2025-12-06 17:08:19,https://www.bienici.com/annonce/square-habitat-immo-facile-41408335,bienici
bienici-citya-immobilier-1284-GES22980019-47,,Cruzy,34310,Occitanie,43.3554503,2.942256,1240.0,40.0,87.98,14.09,4.0,3.0,house,rent,,False,False,0,,2025-12-06 17:08:19,https://www.bienici.com/annonce/citya-immobilier-1284-GES22980019-47,bienici
bienici-citya-immobilier-48298041400536-GES82250005-708,,Châlons-en-Champagne,51000,Other,48.965737,4.3761893,600.0,15.0,60.9,9.85,3.0,0.0,flat,rent,3.0,False,False,0,,2025-12-06 17:08:19,https://www.bienici.com/annonce/citya-immobilier-48298041400536-GES82250005-708,bienici
bienici-citya-immobilier-899463483-GES01180001-859,,Laguenne-sur-Avalouze,19150,Nouvelle-Aquitaine,45.2500997,1.7649208,754.0,39.0,105.84,7.12,6.0,5.0,house,rent,,False,False,0,,2025-12-06 17:08:19,https://www.bienici.com/annonce/citya-immobilier-899463483-GES01180001-859,bienici
bienici-citya-immobilier-41822747600029-GES32640838-934,,Ribemont,2240,Other,49.7959192,3.4588395,870.0,20.0,241.53,3.6,7.0,4.0,house,rent,,False,False,0,,2025-12-06 17:08:19,https://www.bienici.com/annonce/citya-immobilier-41822747600029-GES32640838-934,bienici
bienici-citya-immobilier-45117462700013-GES05210001-946,,Vitrac,24200,Nouvelle-Aquitaine,44.8289164,1.2257288,1220.0,20.0,172.95,7.05,4.0,3.0,house,rent,,False,False,0,,2025-12-06 17:08:19,https://www.bienici.com/annonce/citya-immobilier-45117462700013-GES05210001-946,bienici
bienici-citya-immobilier-5025-GES13733233-216,,Grenoble,38100,Auvergne-Rhône-Alpes,45.1720067,5.7263422,950.0,100.0,80.81,11.76,4.0,3.0,flat,rent,2.0,False,True,0,,2025-12-06 17:08:19,https://www.bienici.com/annonce/citya-immobilier-5025-GES13733233-216,bienici
bienici-citya-immobilier-41822747600029-GES08290001-934,,Saint-Quentin,2100,Other,49.8465253,3.2876843,780.0,30.0,110.56,7.05,5.0,3.0,house,rent,,False,False,0,,2025-12-06 17:08:19,https://www.bienici.com/annonce/citya-immobilier-41822747600029-GES08290001-934,bienici
bienici-ics-cit_CITYA_VALIN_loc-GES24030002-267,,Chartres,28000,Other,48.4480293,1.5112315,720.0,10.0,57.0,12.63,3.0,1.0,flat,rent,1.0,False,False,0,,2025-12-06 17:08:19,https://www.bienici.com/annonce/ics-cit_CITYA_VALIN_loc-GES24030002-267,bienici
bienici-ics-cit_CITYA_VALIN_loc-GES80100036-267,,Luisant,28600,Other,48.4234683,1.4689097,790.0,60.0,65.0,12.15,3.0,2.0,flat,rent,1.0,False,False,0,,2025-12-06 17:08:19,https://www.bienici.com/annonce/ics-cit_CITYA_VALIN_loc-GES80100036-267,bienici
bienici-ag420359-488435054,F4 - CENTRE VILLE SAINT CHAMOND,Saint-Chamond,42400,Auvergne-Rhône-Alpes,45.4688128,4.502766,595.0,20.0,89.0,6.69,4.0,3.0,flat,rent,3.0,False,False,0,,2025-12-06 17:08:19,https://www.bienici.com/annonce/ag420359-488435054,bienici
bienici-citya-immobilier-502027-GES18570031-90,,Rouen,76000,Other,49.4454004,1.0938965,670.0,50.0,30.47,21.99,3.0,2.0,flat,rent,0.0,False,True,0,,2025-12-06 17:08:19,https://www.bienici.com/annonce/citya-immobilier-502027-GES18570031-90,bienici
bienici-ics-cit_CITYA_VALIN_loc-GES00430208-267,,Chartres,28000,Other,48.4480293,1.5112315,645.0,65.0,42.13,15.31,3.0,2.0,flat,rent,3.0,False,False,0,,2025-12-06 17:08:19,https://www.bienici.com/annonce/ics-cit_CITYA_VALIN_loc-GES00430208-267,bienici
bienici-ics-cit_CITYA_VALIN_loc-GES30211212-267,,Morancez,28630,Other,48.4056957,1.5066217,1250.0,70.0,114.15,10.95,6.0,4.0,house,rent,,False,False,0,,2025-12-06 17:08:19,https://www.bienici.com/annonce/ics-cit_CITYA_VALIN_loc-GES30211212-267,bienici
bienici-citya-immobilier-81225281500012-GES31430030-657,,Crozet,1170,Occitanie,46.2806871,6.0134696,1700.0,90.0,70.32,24.18,3.0,2.0,flat,rent,0.0,True,True,0,,2025-12-06 17:08:19,https://www.bienici.com/annonce/citya-immobilier-81225281500012-GES31430030-657,bienici
bienici-citya-immobilier-5028-GES15610327-151,,Saint-Étienne,42000,Auvergne-Rhône-Alpes,45.4509921,4.3896191,595.0,30.0,58.69,10.14,3.0,2.0,flat,rent,4.0,True,False,0,,2025-12-06 17:08:19,https://www.bienici.com/annonce/citya-immobilier-5028-GES15610327-151,bienici
bienici-ag420359-487633016,Bel F4 en Centre Ville avec parking,Saint-Étienne,42000,Auvergne-Rhône-Alpes,45.4509921,4.3896191,890.0,70.0,115.0,7.74,4.0,3.0,flat,rent,2.0,False,False,0,,2025-12-06 17:08:19,https://www.bienici.com/annonce/ag420359-487633016,bienici
bienici-citya-immobilier-1280-GES64780002-45,,Agen,47000,Nouvelle-Aquitaine,44.2009452,0.6244713,890.0,,173.39,5.13,5.0,4.0,house,rent,,False,False,0,,2025-12-06 17:08:19,https://www.bienici.com/annonce/citya-immobilier-1280-GES64780002-45,bienici
bienici-citya-immobilier-482980414000395-GES81260001-701,,Neuville-sur-Ailette,2860,Other,49.4663,3.69603,550.0,,51.53,10.67,3.0,2.0,flat,rent,2.0,False,False,0,,2025-12-06 17:08:19,https://www.bienici.com/annonce/citya-immobilier-482980414000395-GES81260001-701,bienici
bienici-citya-immobilier-5025-GES73650013-216,,Saint-Martin-d'Hères,38400,Auvergne-Rhône-Alpes,45.1781457,5.7656507,1200.0,120.0,82.0,14.63,5.0,3.0,flat,rent,1.0,False,True,0,,2025-12-06 17:08:19,https://www.bienici.com/annonce/citya-immobilier-5025-GES73650013-216,bienici
bienici-citya-immobilier-36-GES20150003-540,,Belfort,90000,Other,47.6459406,6.856508,780.0,90.0,83.0,9.4,3.0,2.0,flat,rent,1.0,False,False,0,,2025-12-06 17:08:22,https://www.bienici.com/annonce/citya-immobilier-36-GES20150003-540,bienici
bienici-citya-immobilier-12454-GES82040002-696,,Saint-Ferréol-d'Auroure,43330,Other,45.3498365,4.2507768,650.0,150.0,95.24,6.82,5.0,3.0,flat,rent,2.0,False,False,0,,2025-12-06 17:08:22,https://www.bienici.com/annonce/citya-immobilier-12454-GES82040002-696,bienici
bienici-citya-immobilier-5025-GES90070069-216,,Saint-Martin-d'Hères,38400,Auvergne-Rhône-Alpes,45.1781457,5.7656507,1200.0,120.0,75.0,16.0,4.0,3.0,flat,rent,4.0,True,True,0,,2025-12-06 17:08:22,https://www.bienici.com/annonce/citya-immobilier-5025-GES90070069-216,bienici
bienici-ag420359-485583647,SUPERBE F2 RÉNOVÉ,Saint-Étienne,42000,Auvergne-Rhône-Alpes,45.4509921,4.3896191,599.0,100.0,59.0,10.15,2.0,1.0,flat,rent,2.0,True,False,0,,2025-12-06 17:08:22,https://www.bienici.com/annonce/ag420359-485583647,bienici
bienici-citya-immobilier-18887-GES59500011-238,,Angers,49100,Pays de la Loire,47.4943373,-0.5508614,1650.0,70.0,168.11,9.82,6.0,5.0,house,rent,,False,False,0,,2025-12-06 17:08:22,https://www.bienici.com/annonce/citya-immobilier-18887-GES59500011-238,bienici
bienici-citya-immobilier-501991-GES03190008-34,,Saint-Denis,97400,Other,-20.9340131,55.4373463,970.0,77.0,38.03,25.51,2.0,1.0,flat,rent,2.0,False,True,0,,2025-12-06 17:08:22,https://www.bienici.com/annonce/citya-immobilier-501991-GES03190008-34,bienici
bienici-ag420359-484786148,APPARTEMENT F4 QUARTIER CHATEAUCREUX,Saint-Étienne,42000,Auvergne-Rhône-Alpes,45.4509921,4.3896191,700.0,130.0,70.0,10.0,4.0,3.0,flat,rent,5.0,True,False,0,,2025-12-06 17:08:22,https://www.bienici.com/annonce/ag420359-484786148,bienici
bienici-ag420359-484754969,F3 duplex au Crêt de Roch,Saint-Étienne,42000,Auvergne-Rhône-Alpes,45.4509921,4.3896191,495.0,5.0,54.0,9.17,3.0,2.0,flat,rent,2.0,False,False,0,,2025-12-06 17:08:22,https://www.bienici.com/annonce/ag420359-484754969,bienici
bienici-citya-immobilier-0398-LAPP5112775,,Le Bouscat,33110,Nouvelle-Aquitaine,44.8646297,-0.600191,990.0,80.0,67.5,14.67,4.0,2.0,flat,rent,3.0,True,False,0,,2025-12-06 17:08:22,https://www.bienici.com/annonce/citya-immobilier-0398-LAPP5112775,bienici
bienici-citya-immobilier-48298041400536-GES07340011-269,,Troyes,10000,Other,48.292587,4.0851266,1150.0,130.0,114.75,10.02,4.0,3.0,flat,rent,0.0,False,False,0,,2025-12-06 17:08:22,https://www.bienici.com/annonce/citya-immobilier-48298041400536-GES07340011-269,bienici
bienici-citya-immobilier-34981721300029-GES23030003-954,,Grenoble,38100,Auvergne-Rhône-Alpes,45.1720067,5.7263422,724.8,31.0,56.97,12.72,3.0,2.0,flat,rent,1.0,True,False,0,,2025-12-06 17:08:22,https://www.bienici.com/annonce/citya-immobilier-34981721300029-GES23030003-954,bienici
bienici-citya-immobilier-5045-GES03900298-173,,Tignieu-Jameyzieu,38230,Auvergne-Rhône-Alpes,45.7561544,5.1958948,1320.0,20.0,107.92,12.23,5.0,4.0,house,rent,,False,False,0,,2025-12-06 17:08:22,https://www.bienici.com/annonce/citya-immobilier-5045-GES03900298-173,bienici
bienici-ag420359-482314952,SUPERBE F4 AVEC TERRASSE ET POSSIBILITÉ GARAGE DOUBLE,Saint-Étienne,42000,Auvergne-Rhône-Alpes,45.4509921,4.3896191,860.0,100.0,85.0,10.12,4.0,2.0,flat,rent,5.0,True,False,0,,2025-12-06 17:08:22,https://www.bienici.com/annonce/ag420359-482314952,bienici
bienici-ag420359-482096234,F1 LUMINEUX A MONTAUD,Saint-Étienne,42000,Auvergne-Rhône-Alpes,45.4509921,4.3896191,332.0,32.0,38.0,8.74,1.0,0.0,flat,rent,2.0,False,False,0,,2025-12-06 17:08:22,https://www.bienici.com/annonce/ag420359-482096234,bienici
bienici-ag420359-482098250,F3 meublé Place Bellevue,Saint-Étienne,42100,Auvergne-Rhône-Alpes,45.4094272,4.428537,600.0,70.0,63.0,9.52,3.0,2.0,flat,rent,1.0,False,False,0,,2025-12-06 17:08:22,https://www.bienici.com/annonce/ag420359-482098250,bienici
bienici-citya-immobilier-36880079300011-GES11510009-998,,Metz,57000,Other,49.1008146,6.1733734,1370.0,160.0,129.02,10.62,5.0,4.0,flat,rent,4.0,True,False,0,,2025-12-06 17:08:22,https://www.bienici.com/annonce/citya-immobilier-36880079300011-GES11510009-998,bienici
bienici-lamy-38-FL0615228,Appartement,Strasbourg,67100,Other,48.5346123,7.7809064,825.0,221.0,69.87,11.81,4.0,2.0,flat,rent,4.0,False,False,0,,2025-12-06 17:08:22,https://www.bienici.com/annonce/lamy-38-FL0615228,bienici
bienici-square-habitat-immo-facile-43141083,A LOUER - APPARTEMENT TYPE 4 - LES PONTS-DE-CE,Les Ponts-de-Cé,49130,Pays de la Loire,47.4269139,-0.5402905,1040.0,90.0,83.06,12.52,4.0,3.0,flat,rent,1.0,False,False,0,,2025-12-06 17:08:22,https://www.bienici.com/annonce/square-habitat-immo-facile-43141083,bienici
bienici-citya-immobilier-48298041400270-GES40320057-700,,Chierry,2400,Nouvelle-Aquitaine,49.0398382,3.430251,1400.0,,149.41,9.37,7.0,5.0,house,rent,,False,False,0,,2025-12-06 17:08:22,https://www.bienici.com/annonce/citya-immobilier-48298041400270-GES40320057-700,bienici
bienici-citya-immobilier-03-GES30290001-541,,Vandœuvre-lès-Nancy,54500,Other,48.6600461,6.1737525,1100.0,,110.0,10.0,4.0,3.0,house,rent,,False,False,0,,2025-12-06 17:08:22,https://www.bienici.com/annonce/citya-immobilier-03-GES30290001-541,bienici
bienici-citya-immobilier-03-GES30280001-541,,Aulnois-sur-Seille,57590,Other,48.8676496,6.3147292,2000.0,,266.99,7.49,4.0,3.0,house,rent,,False,False,0,,2025-12-06 17:08:22,https://www.bienici.com/annonce/citya-immobilier-03-GES30280001-541,bienici
bienici-citya-immobilier-5020-GES20220079-546,,Mandelieu-la-Napoule,6210,Other,43.5439153,6.9359135,1550.0,150.0,47.05,32.94,2.0,1.0,flat,rent,-3.0,True,True,0,,2025-12-06 17:08:22,https://www.bienici.com/annonce/citya-immobilier-5020-GES20220079-546,bienici
bienici-citya-immobilier-42358523100016-GES76770001-971,,Le Broc,63500,Other,45.5001356,3.2431126,850.0,30.0,77.53,10.96,3.0,2.0,house,rent,,False,True,0,,2025-12-06 17:08:22,https://www.bienici.com/annonce/citya-immobilier-42358523100016-GES76770001-971,bienici
bienici-citya-immobilier-53163208100026-GES63230002-1031,,Guérande,44350,Pays de la Loire,47.3488106,-2.428284,1810.0,60.0,217.12,8.34,5.0,4.0,house,rent,,False,False,0,,2025-12-06 17:08:22,https://www.bienici.com/annonce/citya-immobilier-53163208100026-GES63230002-1031,bienici
bienici-citya-immobilier-3718-GES20140005-68,,Périgueux,24000,Nouvelle-Aquitaine,45.1937963,0.7146051,445.0,130.0,10.05,44.28,1.0,0.0,flat,rent,0.0,False,True,0,,2025-12-06 17:08:25,https://www.bienici.com/annonce/citya-immobilier-3718-GES20140005-68,bienici
bienici-citya-immobilier-3718-GES20150004-68,,Périgueux,24000,Nouvelle-Aquitaine,45.1937963,0.7146051,450.0,110.0,14.44,31.16,1.0,0.0,flat,rent,0.0,False,True,0,,2025-12-06 17:08:25,https://www.bienici.com/annonce/citya-immobilier-3718-GES20150004-68,bienici
bienici-citya-immobilier-3718-GES20140003-68,,Périgueux,24000,Nouvelle-Aquitaine,45.1937963,0.7146051,460.0,130.0,10.58,43.48,1.0,0.0,flat,rent,0.0,False,True,0,,2025-12-06 17:08:25,https://www.bienici.com/annonce/citya-immobilier-3718-GES20140003-68,bienici
bienici-citya-immobilier-3718-GES20150001-68,,Périgueux,24000,Nouvelle-Aquitaine,45.1937963,0.7146051,470.0,110.0,11.89,39.53,1.0,0.0,flat,rent,0.0,False,True,0,,2025-12-06 17:08:25,https://www.bienici.com/annonce/citya-immobilier-3718-GES20150001-68,bienici
bienici-ag420359-473247962,F4 NEUF SECTEUR CHATEAUCREUX,Saint-Étienne,42100,Auvergne-Rhône-Alpes,45.4094272,4.428537,1070.0,130.0,85.0,12.59,4.0,3.0,flat,rent,4.0,True,False,0,,2025-12-06 17:08:25,https://www.bienici.com/annonce/ag420359-473247962,bienici
bienici-citya-immobilier-1127-GES52750011-53,,Nice,6000,Other,43.7009358,7.2683912,1750.0,150.0,103.96,16.83,4.0,3.0,flat,rent,4.0,True,False,0,,2025-12-06 17:08:25,https://www.bienici.com/annonce/citya-immobilier-1127-GES52750011-53,bienici
bienici-square-habitat-immo-facile-42174950,Appartement meublé 4 pièces - ANGERS,Angers,49000,Pays de la Loire,47.4631294,-0.5408982,1150.0,205.0,79.0,14.56,4.0,3.0,flat,rent,3.0,True,True,0,,2025-12-06 17:08:25,https://www.bienici.com/annonce/square-habitat-immo-facile-42174950,bienici
bienici-citya-immobilier-5047-GES58140001-218,,Tossiat,1250,Occitanie,46.1385,5.31655,1800.0,,155.51,11.57,4.0,3.0,house,rent,,False,False,0,,2025-12-06 17:08:25,https://www.bienici.com/annonce/citya-immobilier-5047-GES58140001-218,bienici
bienici-citya-immobilier-1119-GES91080776-124,,Cannes,6400,Nouvelle-Aquitaine,43.5515198,7.0134418,1195.0,140.0,57.4,20.82,3.0,2.0,flat,rent,3.0,False,True,0,,2025-12-06 17:08:25,https://www.bienici.com/annonce/citya-immobilier-1119-GES91080776-124,bienici
bienici-citya-immobilier-8472-GES21500109-153,,Le Mans,72100,Pays de la Loire,47.9631872,0.2089294,1500.0,,179.82,8.34,8.0,7.0,house,rent,,False,False,0,,2025-12-06 17:08:25,https://www.bienici.com/annonce/citya-immobilier-8472-GES21500109-153,bienici
bienici-citya-immobilier-5023-GES22080001-97,,Coslédaà-Lube-Boast,64160,Nouvelle-Aquitaine,43.4559051,-0.2328286,1010.0,60.0,172.46,5.86,5.0,4.0,house,rent,,False,False,0,,2025-12-06 17:08:25,https://www.bienici.com/annonce/citya-immobilier-5023-GES22080001-97,bienici
bienici-ag420359-470140289,JOLI F1 AVEC BALCON PROXIMITE FAC,Saint-Étienne,42100,Auvergne-Rhône-Alpes,45.4094272,4.428537,450.0,68.0,35.0,12.86,1.0,0.0,flat,rent,3.0,True,False,0,,2025-12-06 17:08:25,https://www.bienici.com/annonce/ag420359-470140289,bienici
bienici-citya-immobilier-04-GES24080001-552,,Colomiers,31770,Occitanie,43.6117187,1.3246583,1290.0,15.0,84.89,15.2,4.0,3.0,house,rent,,False,False,0,,2025-12-06 17:08:25,https://www.bienici.com/annonce/citya-immobilier-04-GES24080001-552,bienici
bienici-citya-immobilier-5058-LMAI102755,,Châteauroux,36000,Other,46.8022945,1.6919065,1500.0,,287.33,5.22,6.0,4.0,house,rent,,False,True,0,,2025-12-06 17:08:25,https://www.bienici.com/annonce/citya-immobilier-5058-LMAI102755,bienici
bienici-immo-facile-58161191,Maison F5 NEUVE - PLAISANCE - 115m²,Saint-Germain-Laprade,43700,Other,45.0371721,3.9622668,1350.0,,115.0,11.74,5.0,4.0,house,rent,,False,False,0,,2025-12-06 17:08:25,https://www.bienici.com/annonce/immo-facile-58161191,bienici
bienici-century-21-202_2253_2981,,Roquebrune-Cap-Martin,6190,Other,43.7641047,7.4565697,5500.0,,180.0,30.56,5.0,4.0,house,rent,,False,True,0,,2025-12-06 17:08:25,https://www.bienici.com/annonce/century-21-202_2253_2981,bienici
bienici-square-habitat-immo-facile-43070577,T4  de 87.19 m2 à ANGERS,Angers,49000,Pays de la Loire,47.4631294,-0.5408982,1040.0,220.0,87.19,11.93,4.0,3.0,flat,rent,2.0,True,False,0,,2025-12-06 17:08:25,https://www.bienici.com/annonce/square-habitat-immo-facile-43070577,bienici
bienici-citya-immobilier-5043-GES02050001-172,,Anse,69480,Auvergne-Rhône-Alpes,45.9279196,4.705024,1255.0,5.0,126.28,9.94,4.0,3.0,house,rent,,False,False,0,,2025-12-06 17:08:25,https://www.bienici.com/annonce/citya-immobilier-5043-GES02050001-172,bienici
bienici-citya-immobilier-03-GES13400049-541,,Jarville-la-Malgrange,54140,Other,48.6677457,6.2050749,805.0,115.0,63.6,12.66,3.0,2.0,flat,rent,1.0,True,False,0,,2025-12-06 17:08:25,https://www.bienici.com/annonce/citya-immobilier-03-GES13400049-541,bienici
bienici-citya-immobilier-03-GES30100004-541,,Saint-Dizier,52100,Other,48.6419255,4.9232224,837.11,154.0,102.1,8.2,4.0,3.0,flat,rent,1.0,True,False,0,,2025-12-06 17:08:25,https://www.bienici.com/annonce/citya-immobilier-03-GES30100004-541,bienici
bienici-citya-immobilier-6091-GES61580045-530,,Corbeil-Essonnes,91100,Île-de-France,48.5972508,2.4675764,964.0,150.0,80.73,11.94,4.0,2.0,flat,rent,2.0,False,False,0,,2025-12-06 17:08:25,https://www.bienici.com/annonce/citya-immobilier-6091-GES61580045-530,bienici
bienici-citya-immobilier-12453256-GES12270045-495,,Saint-Gilles les Hauts,97435,Other,,,1600.0,,117.37,13.63,5.0,4.0,house,rent,,False,False,0,,2025-12-06 17:08:25,https://www.bienici.com/annonce/citya-immobilier-12453256-GES12270045-495,bienici
bienici-citya-immobilier-42358523100016-GES76170001-971,,Brioude,43100,Other,45.2600711,3.3541205,732.0,32.0,124.07,5.9,5.0,4.0,house,rent,,False,False,0,,2025-12-06 17:08:25,https://www.bienici.com/annonce/citya-immobilier-42358523100016-GES76170001-971,bienici
bienici-citya-immobilier-48298041400270-GES46190001-700,,Essômes-sur-Marne,2400,Nouvelle-Aquitaine,49.0301415,3.3745637,880.0,,89.37,9.85,4.0,2.0,house,rent,,False,True,0,,2025-12-06 17:08:25,https://www.bienici.com/annonce/citya-immobilier-48298041400270-GES46190001-700,bienici
bienici-citya-immobilier-482980414000395-GES90320013-701,,Laon,2000,Other,49.564665,3.620686,437.0,,51.35,8.51,2.0,1.0,flat,rent,1.0,False,False,0,,2025-12-06 17:08:27,https://www.bienici.com/annonce/citya-immobilier-482980414000395-GES90320013-701,bienici
bienici-citya-immobilier-Ag370014-GES83960001-191,,Tours,37000,Other,47.3852447,0.6881351,1750.0,,235.0,7.45,10.0,6.0,house,rent,,False,False,0,,2025-12-06 17:08:27,https://www.bienici.com/annonce/citya-immobilier-Ag370014-GES83960001-191,bienici
bienici-citya-immobilier-5013-GES60180001-84,,Sauveterre,30150,Occitanie,43.4754167,0.1051597,1131.66,25.0,89.95,12.58,4.0,3.0,flat,rent,0.0,False,False,0,,2025-12-06 17:08:27,https://www.bienici.com/annonce/citya-immobilier-5013-GES60180001-84,bienici
bienici-citya-immobilier-0547812-GES00440015-595,,Saint-Gilles,30800,Occitanie,43.6622356,4.3992707,725.0,60.0,53.09,13.66,3.0,2.0,flat,rent,2.0,False,True,0,,2025-12-06 17:08:27,https://www.bienici.com/annonce/citya-immobilier-0547812-GES00440015-595,bienici
bienici-citya-immobilier-52539248600029-GES22060028-617,,Aix-les-Bains,73100,Auvergne-Rhône-Alpes,45.7125545,5.9509649,1077.0,77.0,68.28,15.77,3.0,2.0,flat,rent,3.0,True,True,0,,2025-12-06 17:08:27,https://www.bienici.com/annonce/citya-immobilier-52539248600029-GES22060028-617,bienici
bienici-citya-immobilier-52539248600029-GES10560029-617,,Aix-les-Bains,73100,Auvergne-Rhône-Alpes,45.7125545,5.9509649,882.98,76.0,57.51,15.35,2.0,1.0,flat,rent,4.0,True,True,0,,2025-12-06 17:08:27,https://www.bienici.com/annonce/citya-immobilier-52539248600029-GES10560029-617,bienici
bienici-citya-immobilier-1265-GES86770014-69,,Limoges,87000,Nouvelle-Aquitaine,45.8294628,1.2581623,601.0,40.0,59.96,10.02,2.0,1.0,flat,rent,3.0,False,False,0,,2025-12-06 17:08:27,https://www.bienici.com/annonce/citya-immobilier-1265-GES86770014-69,bienici
bienici-citya-immobilier-482980414000395-GES91010105-701,,Soissons,2200,Other,49.3837621,3.327613,685.0,240.0,62.69,10.93,3.0,1.0,flat,rent,0.0,True,False,0,,2025-12-06 17:08:27,https://www.bienici.com/annonce/citya-immobilier-482980414000395-GES91010105-701,bienici
bienici-apimo-85251018,NICE CIMIEZ-PASTEUR - STUDIO MEUBLE,Nice,6000,Other,43.7009358,7.2683912,737.0,,21.23,34.72,1.0,0.0,flat,rent,1.0,False,True,0,,2025-12-06 17:08:27,https://www.bienici.com/annonce/apimo-85251018,bienici
bienici-citya-immobilier-48298041400270-GES43860016-700,,Château-Thierry,2400,Nouvelle-Aquitaine,49.0457362,3.4027111,850.0,100.0,69.71,12.19,3.0,2.0,flat,rent,2.0,True,False,0,,2025-12-06 17:08:27,https://www.bienici.com/annonce/citya-immobilier-48298041400270-GES43860016-700,bienici
bienici-citya-immobilier-0398-GES07660008-548,,Bordeaux,33300,Nouvelle-Aquitaine,44.8829908,-0.5568152,1275.0,25.0,74.4,17.14,3.0,2.0,flat,rent,0.0,False,True,0,,2025-12-06 17:08:27,https://www.bienici.com/annonce/citya-immobilier-0398-GES07660008-548,bienici
bienici-citya-immobilier-1171-GES01031467-74,,Antibes,6160,Other,43.5812868,7.1262071,1990.0,449.0,78.87,25.23,4.0,3.0,flat,rent,6.0,True,True,0,,2025-12-06 17:08:27,https://www.bienici.com/annonce/citya-immobilier-1171-GES01031467-74,bienici
bienici-citya-immobilier-502027-GES87750039-90,,Déville-lès-Rouen,76250,Other,49.4672778,1.0500731,940.0,80.0,80.48,11.68,4.0,3.0,flat,rent,1.0,True,False,0,,2025-12-06 17:08:27,https://www.bienici.com/annonce/citya-immobilier-502027-GES87750039-90,bienici
bienici-citya-immobilier-87874882100021-GES21150001-776,,Dieppe,76200,Other,49.9188251,1.0712398,910.0,,114.15,7.97,7.0,5.0,house,rent,,False,True,0,,2025-12-06 17:08:27,https://www.bienici.com/annonce/citya-immobilier-87874882100021-GES21150001-776,bienici
bienici-citya-immobilier-0398-GES07610001-548,,Blaye,33390,Nouvelle-Aquitaine,45.1644323,-0.6205711,533.2,13.0,41.33,12.9,2.0,1.0,house,rent,,False,False,0,,2025-12-06 17:08:27,https://www.bienici.com/annonce/citya-immobilier-0398-GES07610001-548,bienici
bienici-citya-immobilier-1955-GES65150063-141,,Le Mans,72000,Pays de la Loire,48.008023,0.2038573,1045.0,240.0,60.34,17.32,3.0,2.0,flat,rent,3.0,True,True,0,,2025-12-06 17:08:27,https://www.bienici.com/annonce/citya-immobilier-1955-GES65150063-141,bienici
bienici-citya-immobilier-52539248600029-GES10120140-617,,Aix-les-Bains,73100,Auvergne-Rhône-Alpes,45.7125545,5.9509649,840.0,90.0,51.69,16.25,2.0,1.0,flat,rent,3.0,True,True,0,,2025-12-06 17:08:27,https://www.bienici.com/annonce/citya-immobilier-52539248600029-GES10120140-617,bienici
bienici-citya-immobilier-1279-GES24680001-37,,Le Château-d'Oléron,17480,Nouvelle-Aquitaine,45.8786511,-1.2183758,745.0,,46.25,16.11,2.0,1.0,flat,rent,0.0,False,False,0,,2025-12-06 17:08:27,https://www.bienici.com/annonce/citya-immobilier-1279-GES24680001-37,bienici
bienici-citya-immobilier-03-GES02870001-541,,Nancy,54000,Other,48.6894725,6.181598,1270.0,,103.42,12.28,5.0,3.0,house,rent,,False,False,0,,2025-12-06 17:08:27,https://www.bienici.com/annonce/citya-immobilier-03-GES02870001-541,bienici
bienici-citya-immobilier-5002-GES01670072-78,,Le Havre,76620,Other,49.5130241,0.1058159,1550.0,100.0,105.55,14.68,4.0,3.0,flat,rent,3.0,True,False,0,,2025-12-06 17:08:27,https://www.bienici.com/annonce/citya-immobilier-5002-GES01670072-78,bienici
bienici-citya-immobilier-1280-GES54020001-45,,Montesquieu,47130,Nouvelle-Aquitaine,43.5637486,3.271108,920.0,5.0,117.08,7.86,4.0,3.0,house,rent,,False,False,0,,2025-12-06 17:08:27,https://www.bienici.com/annonce/citya-immobilier-1280-GES54020001-45,bienici
bienici-netty-midiimmobilier-appt-4734,VASTE T6 EN DUPLEX AVEC GARAGE ET PARKING,Toulouse,31500,Occitanie,43.6035842,1.4719448,1500.0,80.0,140.0,10.71,6.0,4.0,flat,rent,3.0,False,False,0,,2025-12-06 17:08:27,https://www.bienici.com/annonce/netty-midiimmobilier-appt-4734,bienici
bienici-citya-immobilier-20533-GES20900026-281,,Perpignan,66100,Occitanie,42.6509604,2.8946334,800.0,65.0,63.68,12.56,3.0,2.0,flat,rent,2.0,True,False,0,,2025-12-06 17:08:27,https://www.bienici.com/annonce/citya-immobilier-20533-GES20900026-281,bienici
bienici-citya-immobilier-1164-GES34590001-56,,Beaumont-en-Véron,37420,Other,47.2234424,0.1932325,925.0,5.0,100.72,9.18,5.0,4.0,house,rent,,False,False,0,,2025-12-06 17:08:27,https://www.bienici.com/annonce/citya-immobilier-1164-GES34590001-56,bienici
bienici-citya-immobilier-100651-D-GES25410001-122,,Laval,53000,Pays de la Loire,48.0579229,-0.7619246,385.0,25.0,28.36,13.58,1.0,0.0,flat,rent,2.0,False,False,0,,2025-12-06 18:31:04,https://www.bienici.com/annonce/citya-immobilier-100651-D-GES25410001-122,bienici
